stop_id,stop_code,stop_name,stop_desc,stop_lat,stop_lon,location_type,parent_station,zone_id
"4229","54254",צומת תל חי,רחוב: 90 עיר: הגליל העליון רציף:  קומה: ,"33.235147",35.580147,false,,"54254"
"4230","54255",עולי הגרדום/הרצל,רחוב: עולי הגרדום 13 עיר: קרית שמונה רציף:  קומה: ,"33.204243",35.566898,false,,"54255"
"4231","54256",הורדים/חבצלת ב,רחוב: הורדים 44 עיר: קרית שמונה רציף:  קומה: ,"33.212418",35.579918,false,,"54256"
"4233","54258",הלבנון/יעקב מלול,רחוב: הלבנון 5 עיר: קרית שמונה רציף:  קומה: ,"33.221175",35.572034,false,,"54258"
"4234","54259",הורדים/הכלנית,רחוב: הורדים 18 עיר: קרית שמונה רציף:  קומה: ,"33.217231",35.579527,false,,"54259"
"4235","54260",הורדים/החצב,רחוב: הורדים עיר: קרית שמונה רציף:  קומה: ,"33.214979",35.579749,false,,"54260"
"4339","54369",תל חי/הירדן,רחוב: תל חי 57 עיר: קרית שמונה רציף:  קומה: ,"33.212637",35.570614,false,,"54369"
"4340","54370",מכללת תל חי,רחוב:   עיר: תל חי רציף:  קומה: ,"33.234563",35.578349,false,,"54370"
"5564","57456",התעשייה/הנרייטה סאלד,רחוב: יהלום עיר: קרית שמונה רציף:  קומה: ,"33.197725",35.57642,false,,"57456"
"5576","57468",הר הצופים/יקוטיאל אדם,רחוב: הר הצופים 1 עיר: קרית שמונה רציף:  קומה: ,"33.223314",35.569909,false,,"57468"
"5580","57472",הנרייטה סאלד/קרן היסוד,רחוב: הנרייטה סולד 4 עיר: קרית שמונה רציף:  קומה: ,"33.199581",35.575858,false,,"57472"
"5600","57819",מועדון ויצו/עולי הגרדום,רחוב: עולי הגרדום 18 עיר: קרית שמונה רציף:  קומה: ,"33.203734",35.566515,false,,"57819"
"5602","57827",יעקוב מלול/הלבנון,רחוב: יעקב מלול 1 עיר: קרית שמונה רציף:  קומה: ,"33.220974",35.57139,false,,"57827"
"5603","57828",יהודה הלוי/רזיאל,רחוב: יהודה הלוי 20 עיר: קרית שמונה רציף:  קומה: ,"33.213850",35.567087,false,,"57828"
"5839","58246",שפריצק/הנשיא,רחוב: יוסף שפרינצק 5 עיר: קרית שמונה רציף:  קומה: ,"33.218157",35.577381,false,,"58246"
"5840","58247",שפרינצק ב,רחוב: יוסף שפרינצק 15 עיר: קרית שמונה רציף:  קומה: ,"33.216378",35.577631,false,,"58247"
"5841","58248",שפרינצק א,רחוב: יוסף שפרינצק 31 עיר: קרית שמונה רציף:  קומה: ,"33.213577",35.577444,false,,"58248"
"5842","58249",שפרינצק/הנרי מלכה,רחוב: יוסף שפרינצק 47 עיר: קרית שמונה רציף:  קומה: ,"33.211129",35.576985,false,,"58249"
"5915","58327",הורדים,רחוב: הורדים 96 עיר: קרית שמונה רציף:  קומה: ,"33.210137",35.579792,false,,"58327"
"5930","58342",הר כרמל/האצ''ל,רחוב:   עיר: קרית שמונה רציף:  קומה: ,"33.224422",35.56964,false,,"58342"
"5986","58398",תל חי/שי עגנון,רחוב: תל חי עיר: קרית שמונה רציף:  קומה: ,"33.215143",35.570929,false,,"58398"
"5988","58400",הנשיא/רש''י,רחוב: הנשיא 32 עיר: קרית שמונה רציף:  קומה: ,"33.218302",35.576555,false,,"58400"
"5989","58401",שפרינצק/הנשיא,רחוב: יוסף שפרינצק 8 עיר: קרית שמונה רציף:  קומה: ,"33.217758",35.577374,false,,"58401"
"5990","58402",שפרינצק א,רחוב: יוסף שפרינצק 18 עיר: קרית שמונה רציף:  קומה: ,"33.215711",35.57737,false,,"58402"
"5991","58403",שפרינצק/הנרי מלכה,רחוב: יוסף שפרינצק 60 עיר: קרית שמונה רציף:  קומה: ,"33.210914",35.576791,false,,"58403"
"5992","58404",הנרייטה סאלד/עליית הנוער,רחוב: הנרייטה סולד עיר: קרית שמונה רציף:  קומה: ,"33.199688",35.573401,false,,"58404"
"5993","58405",הנרייטה סאלד/סלמנוביץ,רחוב: הנרייטה סולד 18 עיר: קרית שמונה רציף:  קומה: ,"33.200329",35.570878,false,,"58405"
"5994","58406",הלבנון/הרי נפתלי,רחוב: הלבנון 20 עיר: קרית שמונה רציף:  קומה: ,"33.219003",35.569949,false,,"58406"
"5995","58407",יהודה הלוי/סלינג'ר,רחוב: יהודה הלוי 32 עיר: קרית שמונה רציף:  קומה: ,"33.212885",35.567018,false,,"58407"
"6038","58450",יקותיאל אדם/יעקב מלול,רחוב: יקותיאל אדם 12 עיר: קרית שמונה רציף:  קומה: ,"33.220696",35.569473,false,,"58450"
"6058","58470",סיני/תל חי,רחוב: סיני 1 עיר: קרית שמונה רציף:  קומה: ,"33.205237",35.568857,false,,"58470"
"6117","58529",סלינגר/משטרה,רחוב: דוד סלינג'ר עיר: קרית שמונה רציף:  קומה: ,"33.212403",35.568209,false,,"58529"
"6118","58530",סלינג'ר/המכבים,רחוב: דוד סלינג'ר עיר: קרית שמונה רציף:  קומה: ,"33.212252",35.568314,false,,"58530"
"6850","59552",צומת צוק מנרה,רחוב: 90 עיר: הגליל העליון רציף:  קומה: ,"33.191933",35.567075,false,,"59552"
"6851","59553",מכללת תל חי קמפוס מזרחי,רחוב:   עיר: תל חי רציף:  קומה: ,"33.231348",35.580213,false,,"59553"
"18707","51435",תל חי/90,רחוב: 90 עיר: קרית שמונה רציף:  קומה: ,"33.193619",35.56901,false,,"51435"
"18709","51437",ת. מרכזית ק''ש/רציפים,רחוב:   עיר: קרית שמונה רציף:  קומה: ,"33.209085",35.569276,true,,"51437"
"18710","51438",90/תל חי,רחוב: 90 עיר: קרית שמונה רציף:  קומה: ,"33.193996",35.5689,false,,"51438"
"18712","51440",בית המשפט/תל חי,רחוב: תל חי עיר: קרית שמונה רציף:  קומה: ,"33.196282",35.569384,false,,"51440"
"18714","51442",סולל בונה/תל חי,רחוב: תל חי עיר: קרית שמונה רציף:  קומה: ,"33.197250",35.569119,false,,"51442"
"18716","51444",תל חי/יצחק שדה,רחוב: תל חי 126 עיר: קרית שמונה רציף:  קומה: ,"33.200250",35.569282,false,,"51444"
"18717","51445",תל חי/הנרייטה סאלד,רחוב: תל חי 87 עיר: קרית שמונה רציף:  קומה: ,"33.201333",35.569591,false,,"51445"
"18719","51447",תל חי/יצחק שדה,רחוב: תל חי עיר: קרית שמונה רציף:  קומה: ,"33.202749",35.56935,false,,"51447"
"18722","51450",תנובה/תל חי,רחוב: תל חי 112 עיר: קרית שמונה רציף:  קומה: ,"33.206100",35.569493,false,,"51450"
"18723","51451",תל חי/אורי אילן,רחוב: תל חי 85 עיר: קרית שמונה רציף:  קומה: ,"33.205323",35.569651,false,,"51451"
"18725","51453",תנובה/תל חי,רחוב: תל חי 108 עיר: קרית שמונה רציף:  קומה: ,"33.207104",35.569642,false,,"51453"
"18726","51454",תנובה/תל חי,רחוב: תל חי עיר: קרית שמונה רציף:  קומה: ,"33.207158",35.569889,false,,"51454"
"18970","51716",כפר גלעדי,רחוב:   עיר: כפר גלעדי רציף:  קומה: ,"33.242363",35.574841,false,,"51716"
"18973","51719",צומת תל חי,רחוב: 90 עיר: הגליל העליון רציף:  קומה: ,"33.236252",35.58066,false,,"51719"
"18974","51720",מסעף כפר יובל,רחוב: 90 עיר: הגליל העליון רציף:  קומה: ,"33.243610",35.582243,false,,"51720"
"18975","51721",בית עלמין,רחוב: תל חי עיר: קרית שמונה רציף:  קומה: ,"33.226944",35.577492,false,,"51721"
"18990","51736",מסעף כפר יובל,רחוב: 90 עיר: הגליל העליון רציף:  קומה: ,"33.242630",35.582108,false,,"51736"
"19479","52280",בית ספר רמב''ם/יצחק שדה,רחוב: יצחק שדה 13 עיר: קרית שמונה רציף:  קומה: ,"33.198943",35.566383,false,,"52280"
"19480","52281",ברזילי/החולה,רחוב: ברזילי 28 עיר: קרית שמונה רציף:  קומה: ,"33.196549",35.567511,false,,"52281"
"19483","52284",כצנלסון/דן,רחוב: ברל כצנלסון 4 עיר: קרית שמונה רציף:  קומה: ,"33.205546",35.566463,false,,"52284"
"19484","52285",כצנלסון/ששת הימים,רחוב: ברל כצנלסון 12 עיר: קרית שמונה רציף:  קומה: ,"33.204092",35.565547,false,,"52285"
"19485","52286",כצנלסון/השופטים,רחוב: ברל כצנלסון 26 עיר: קרית שמונה רציף:  קומה: ,"33.201942",35.564859,false,,"52286"
"19486","52287",תל חי/סיני,רחוב: תל חי 116 עיר: קרית שמונה רציף:  קומה: ,"33.204747",35.569361,false,,"52287"
"19487","52288",שפרינצק/הירדן,רחוב: יוסף שפרינצק 55 עיר: קרית שמונה רציף:  קומה: ,"33.209797",35.574761,false,,"52288"
"19489","52290",הירדן/תל חי,רחוב: הירדן 6 עיר: קרית שמונה רציף:  קומה: ,"33.211105",35.571541,false,,"52290"
"19493","52294",קופת חולים/רשי,רחוב: רש''י 9 עיר: קרית שמונה רציף:  קומה: ,"33.218649",35.573792,false,,"52294"
"19494","52295",תל חי/הגלעד,רחוב: תל חי 66 עיר: קרית שמונה רציף:  קומה: ,"33.217544",35.570756,false,,"52295"
"19495","52296",צומת המצודות/תל חי,רחוב: תל חי עיר: קרית שמונה רציף:  קומה: ,"33.222923",35.575412,false,,"52296"
"19496","52297",בית העלמין,רחוב: 90 עיר: קרית שמונה רציף:  קומה: ,"33.227684",35.577741,false,,"52297"
"19497","52298",בית ספר קורצק/יהודה הלוי,רחוב: יהודה הלוי 12 עיר: קרית שמונה רציף:  קומה: ,"33.215618",35.568284,false,,"52298"
"19500","52301",הר הצופים/יקותיאל אדם,רחוב: הר הצופים 17 עיר: קרית שמונה רציף:  קומה: ,"33.220569",35.568218,false,,"52301"
"19679","52503",צומת המצודות/תל חי,רחוב: תל חי עיר: קרית שמונה רציף:  קומה: ,"33.221470",35.573999,false,,"52503"
"19742","52599",עולי הגרדום/הרב קוק,רחוב: עולי הגרדום 35 עיר: קרית שמונה רציף:  קומה: ,"33.199401",35.565135,false,,"52599"
"19743","52600",עולי הגרדום,רחוב: עולי הגרדום 33 עיר: קרית שמונה רציף:  קומה: ,"33.200691",35.565821,false,,"52600"
"19744","52601",הרצל/עולי הגרדום,רחוב: הרצל 47 עיר: קרית שמונה רציף:  קומה: ,"33.205407",35.567714,false,,"52601"
"19751","52608",יקותיאל אדם/יהודה הלוי,רחוב: יקותיאל אדם עיר: קרית שמונה רציף:  קומה: ,"33.218856",35.568658,false,,"52608"
"19752","52609",הר הצופים,רחוב: הר הצופים 8 עיר: קרית שמונה רציף:  קומה: ,"33.222023",35.56862,false,,"52609"
"19753","52610",הר הצופים/יקותיאל אדם,רחוב: הר הצופים 18 עיר: קרית שמונה רציף:  קומה: ,"33.220316",35.568171,false,,"52610"
"19758","52615",מסעף תל חי,רחוב: 9977 עיר: הגליל העליון רציף:  קומה: ,"33.235975",35.579481,false,,"52615"
"19780","52637",קרן היסוד/הירדן,רחוב: קרן היסוד 2 עיר: קרית שמונה רציף:  קומה: ,"33.203086",35.575328,false,,"52637"
"19781","52638",כצנלסון/ששת הימים,רחוב: ברל כצנלסון 19 עיר: קרית שמונה רציף:  קומה: ,"33.204130",35.565744,false,,"52638"
"19782","52639",הרצל/יצחק שדה,רחוב: הרצל 100 עיר: קרית שמונה רציף:  קומה: ,"33.200322",35.566939,false,,"52639"
"19783","52640",הרצל/כצנלסון,רחוב: הרצל 31 עיר: קרית שמונה רציף:  קומה: ,"33.207964",35.567488,false,,"52640"
"19784","52641",עולי הגרדום,רחוב: עולי הגרדום 34 עיר: קרית שמונה רציף:  קומה: ,"33.200678",35.565697,false,,"52641"
"19785","52642",הירדן/משאש,רחוב: הירדן 22 עיר: קרית שמונה רציף:  קומה: ,"33.207806",35.574812,false,,"52642"
"19786","52643",בית ספר דנציגר/הירדן,רחוב: הירדן 30 עיר: קרית שמונה רציף:  קומה: ,"33.204903",35.575372,false,,"52643"
"19787","52644",הירדן/שפרינצק,רחוב: הירדן 17 עיר: קרית שמונה רציף:  קומה: ,"33.208616",35.574338,false,,"52644"
"19789","52646",יהודה הלוי/רזיאל,רחוב: יהודה הלוי 9 עיר: קרית שמונה רציף:  קומה: ,"33.215797",35.568593,false,,"52646"
"19790","52647",קופת חולים/רשי,רחוב: רש''י 8 עיר: קרית שמונה רציף:  קומה: ,"33.218594",35.573676,false,,"52647"
"19791","52648",יהודה הלוי/גלעד,רחוב: יהודה הלוי 6 עיר: קרית שמונה רציף:  קומה: ,"33.217264",35.568824,false,,"52648"
"19792","52649",בית ספר עוזיאל/יקותיאל אדם,רחוב: יקותיאל אדם עיר: קרית שמונה רציף:  קומה: ,"33.222489",35.57035,false,,"52649"
"19793","52650",הר הצופים/הר כרמל,רחוב: הר הצופים 7 עיר: קרית שמונה רציף:  קומה: ,"33.222264",35.568866,false,,"52650"
"19796","52653",קרן היסוד/הנרייטה סאלד,רחוב: קרן היסוד 7 עיר: קרית שמונה רציף:  קומה: ,"33.200857",35.575329,false,,"52653"
"19797","52654",קרן היסוד/הירדן,רחוב: קרן היסוד 5 עיר: קרית שמונה רציף:  קומה: ,"33.202020",35.575259,false,,"52654"
"19798","52655",תל חי/רש''י,רחוב: תל חי עיר: קרית שמונה רציף:  קומה: ,"33.219877",35.572785,false,,"52655"
"19808","52665",תל חי/ברזילי,רחוב: 90 עיר: קרית שמונה רציף:  קומה: ,"33.194998",35.569099,false,,"52665"
"19809","52666",הנרייטה סאלד/אליעזר פרי,רחוב: הנרייטה סולד עיר: קרית שמונה רציף:  קומה: ,"33.199930",35.5716,false,,"52666"
"19810","52667",הרצל/סיני,רחוב: הרצל 56 עיר: קרית שמונה רציף:  קומה: ,"33.204989",35.567674,false,,"52667"
"19894","52752",צומת המצודות,רחוב: 99 עיר: קרית שמונה רציף:  קומה: ,"33.221897",35.575429,false,,"52752"
"19966","52824",מסעף כפר גלעדי,רחוב: 9977 עיר: הגליל העליון רציף:  קומה: ,"33.237650",35.575735,false,,"52824"
"20026","52884",מסעף כפר גלעדי,רחוב: 9977 עיר: הגליל העליון רציף:  קומה: ,"33.237131",35.576572,false,,"52884"
"20032","52890",הירדן/קרן היסוד,רחוב: הירדן 33 עיר: קרית שמונה רציף:  קומה: ,"33.202998",35.575848,false,,"52890"
"20038","52897",מסעף כפר יובל מערב,רחוב: 9974 עיר: הגליל העליון רציף:  קומה: ,"33.243168",35.582546,false,,"52897"
"20137","52996",שפרינצק/הירדן,רחוב: יוסף שפרינצק 84 עיר: קרית שמונה רציף:  קומה: ,"33.209845",35.574351,false,,"52996"
"20138","52997",הירדן,רחוב: הירדן עיר: קרית שמונה רציף:  קומה: ,"33.200427",35.576637,false,,"52997"
"20150","53009",אחי אילת/כצנלסון,רחוב: השופטים 11 עיר: קרית שמונה רציף:  קומה: ,"33.201480",35.564866,false,,"53009"
"20155","53014",מרכז הטניס,רחוב: 99 עיר: קרית שמונה רציף:  קומה: ,"33.222337",35.576618,false,,"53014"
"20276","53136",הרב קוק /בית ספר הנשיא,רחוב: הרב קוק עיר: קרית שמונה רציף:  קומה: ,"33.198556",35.564465,false,,"53136"
"20277","53137",עולי הגרדום/אחי אילת,רחוב: עולי הגרדום 38 עיר: קרית שמונה רציף:  קומה: ,"33.199591",35.565117,false,,"53137"
"20278","53138",בית ספר המתמיד/הרצל,רחוב: הרצל 70 עיר: קרית שמונה רציף:  קומה: ,"33.203065",35.567431,false,,"53138"
"20280","53140",הירדן/ביאליק,רחוב: הירדן 7 עיר: קרית שמונה רציף:  קומה: ,"33.210750",35.57206,false,,"53140"
"20281","53141",בית ספר מגינים/ביאליק,רחוב: חיים נחמן ביאליק 42 עיר: קרית שמונה רציף:  קומה: ,"33.210661",35.57317,false,,"53141"
"20283","53143",קניון נחמיה/הנשיא,רחוב: הנשיא 4 עיר: קרית שמונה רציף:  קומה: ,"33.221329",35.576106,false,,"53143"
"20284","53144",הרב יוסף משאש/אורי אילן,רחוב: הרב יוסף משאש 13 עיר: קרית שמונה רציף:  קומה: ,"33.206815",35.572324,false,,"53144"
"20285","53145",יוסף טרומפלדור/אליעזר פרי,רחוב: יוסף טרומפלדור 48 עיר: קרית שמונה רציף:  קומה: ,"33.203617",35.571323,false,,"53145"
"20286","53146",הנרייטה סאלד,רחוב: הנרייטה סולד עיר: קרית שמונה רציף:  קומה: ,"33.199359",35.574177,false,,"53146"
"20430","53290",בית ספר דנציגר/הירדן,רחוב: הירדן 27 עיר: קרית שמונה רציף:  קומה: ,"33.205418",35.575367,false,,"53290"
"20450","53310",מנחם בגין/נורית,רחוב: שדרות מנחם בגין 133 עיר: קרית שמונה רציף:  קומה: ,"33.210909",35.581223,false,,"53310"
"20451","53311",מנחם בגין/חבצלת,רחוב: שדרות מנחם בגין 103 עיר: קרית שמונה רציף:  קומה: ,"33.213468",35.581498,false,,"53311"
"20452","53312",מנחם בגין/סביון,רחוב: שדרות מנחם בגין 81 עיר: קרית שמונה רציף:  קומה: ,"33.214885",35.581705,false,,"53312"
"20453","53313",מנחם בגין/כלנית,רחוב: שדרות מנחם בגין 55 עיר: קרית שמונה רציף:  קומה: ,"33.216694",35.581806,false,,"53313"
"20454","53314",מנחם בגין/עירית,רחוב: שדרות מנחם בגין 29 עיר: קרית שמונה רציף:  קומה: ,"33.219171",35.581903,false,,"53314"
"20455","53315",מנחם בגין/ארנון,רחוב: שדרות מנחם בגין 11 עיר: קרית שמונה רציף:  קומה: ,"33.220615",35.580148,false,,"53315"
"20456","53316",הורדים/עין הזהב,רחוב: הורדים 1 עיר: קרית שמונה רציף:  קומה: ,"33.220254",35.57883,false,,"53316"
"20480","53340",ת. מרכזית ק''ש/הורדה,רחוב:   עיר: קרית שמונה רציף:  קומה: ,"33.210071",35.569123,false,,"53340"
"20735","53598",ספיר/חושן,רחוב: ספיר עיר: קרית שמונה רציף:  קומה: ,"33.195308",35.571989,false,,"53598"
"20736","53599",יהלום/יובל יניב,רחוב: יהלום עיר: קרית שמונה רציף:  קומה: ,"33.195441",35.575948,false,,"53599"
"20832","53695",הנשיא/בריכת שחיה עירונית,רחוב: הנשיא 25 עיר: קרית שמונה רציף:  קומה: ,"33.219408",35.576706,false,,"53695"
"20833","53696",האצ''ל/נוף חרמון,רחוב: האצ''ל 27 עיר: קרית שמונה רציף:  קומה: ,"33.216383",35.567363,false,,"53696"
"20834","53697",האצ''ל ג,רחוב: האצ''ל עיר: קרית שמונה רציף:  קומה: ,"33.219007",35.567644,false,,"53697"
"20835","53698",הרי יהודה/הרי אפרים,רחוב: הרי יהודה עיר: קרית שמונה רציף:  קומה: ,"33.226486",35.570539,false,,"53698"
"20836","53699",הרי יהודה/הר גלבוע,רחוב: הרי יהודה עיר: קרית שמונה רציף:  קומה: ,"33.226431",35.570681,false,,"53699"
"20837","53700",הרי אפרים/הר ציון,רחוב: הרי אפרים 51 עיר: קרית שמונה רציף:  קומה: ,"33.227868",35.56711,false,,"53700"
"20838","53701",הרי אפרים,רחוב: הרי אפרים 49 עיר: קרית שמונה רציף:  קומה: ,"33.227847",35.567357,false,,"53701"
"20839","53702",הר ציון סובה,רחוב: הר ציון 21 עיר: קרית שמונה רציף:  קומה: ,"33.228874",35.56848,false,,"53702"
"20844","53708",הרי אפרים/הר אדמון,רחוב: הרי אפרים 14 עיר: קרית שמונה רציף:  קומה: ,"33.227656",35.570378,false,,"53708"
"20845","53709",הרי אפרים/הר אביטל,רחוב: הרי אפרים 15 עיר: קרית שמונה רציף:  קומה: ,"33.227541",35.57013,false,,"53709"
"20846","53710",עליית הנוער/הנרייטה סאלד,רחוב: עליית הנוער עיר: קרית שמונה רציף:  קומה: ,"33.200943",35.572906,false,,"53710"
"20851","53715",שוק עירוני/תל חי,רחוב: תל חי 84 עיר: קרית שמונה רציף:  קומה: ,"33.213395",35.570443,false,,"53715"
"20858","53722",ששת הימים/בית ספר מצודות,רחוב: מלחמת ששת הימים 59 עיר: קרית שמונה רציף:  קומה: ,"33.206730",35.565133,false,,"53722"
"20861","53725",יקותיאל אדם/יעקב מלול,רחוב: יקותיאל אדם 10 עיר: קרית שמונה רציף:  קומה: ,"33.221507",35.569762,false,,"53725"
"20864","53728",עין הזהב/הנשיא,רחוב: עין זהב 3 עיר: קרית שמונה רציף:  קומה: ,"33.219999",35.577247,false,,"53728"
"20868","53732",הורדים/מנחם בגין,רחוב: הורדים 112 עיר: קרית שמונה רציף:  קומה: ,"33.208581",35.580086,false,,"53732"
"20869","53733",מנחם בגין/הורדים,רחוב: שדרות מנחם בגין 159 עיר: קרית שמונה רציף:  קומה: ,"33.208172",35.580769,false,,"53733"
"20870","53734",הורדים/חבצלת א,רחוב: הורדים עיר: קרית שמונה רציף:  קומה: ,"33.213950",35.579836,false,,"53734"
"20871","53735",הורדים/חרצית,רחוב: הורדים 6 עיר: קרית שמונה רציף:  קומה: ,"33.218995",35.579409,false,,"53735"
"20872","53736",בית ספר תל חי/הנשיא,רחוב: הנשיא עיר: קרית שמונה רציף:  קומה: ,"33.221616",35.576117,false,,"53736"
"34246","57861",הירדן/קרן היסוד,רחוב: הירדן 29 עיר: קרית שמונה רציף:  קומה: ,"33.203997",35.575688,false,,"57861"
"34248","57863",הלבנון,רחוב: הלבנון 19 עיר: קרית שמונה רציף:  קומה: ,"33.219754",35.570649,false,,"57863"
"34249","57864",שפרינצק ב,רחוב: יוסף שפרינצק 32 עיר: קרית שמונה רציף:  קומה: ,"33.213435",35.577334,false,,"57864"
"34250","57865",האצל,רחוב: האצ''ל 7 עיר: קרית שמונה רציף:  קומה: ,"33.223396",35.56796,false,,"57865"
"34251","57866",קרן היסוד/הנרייטה סאלד,רחוב: קרן היסוד 10 עיר: קרית שמונה רציף:  קומה: ,"33.201238",35.575168,false,,"57866"
"34253","57868",יעקב מלול/הלבנון,רחוב: יעקב מלול 6 עיר: קרית שמונה רציף:  קומה: ,"33.221065",35.571281,false,,"57868"
"34280","57883",הלבנון/הרי נפתלי,רחוב: הלבנון 14 עיר: קרית שמונה רציף:  קומה: ,"33.219957",35.570706,false,,"57883"
"34282","57885",מחנה גיבור/עין זהב,רחוב: עין זהב עיר: קרית שמונה רציף:  קומה: ,"33.221680",35.577398,false,,"57885"
"34283","57886",מכללת תל חי מערב,רחוב:   עיר: תל חי רציף:  קומה: ,"33.236857",35.577605,false,,"57886"
"34286","57889",מסעף איזור תעשיה,רחוב: 99 עיר: קרית שמונה רציף:  קומה: ,"33.220892",35.587178,false,,"57889"
"34308","57903",אח''י אילת/הרב קוק,רחוב: אח''י אילת 6 עיר: קרית שמונה רציף:  קומה: ,"33.199795",35.564554,false,,"57903"
"34309","57904",הירדן/התעשיה,רחוב: הירדן עיר: קרית שמונה רציף:  קומה: ,"33.199245",35.577479,false,,"57904"
"35316","58852",מתחם ביג/קריית שמונה,רחוב:   עיר: מפעלים אזוריים הגליל העליון רציף:  קומה: ,"33.192391",35.570342,false,,"58852"
"39197","51312",הר גלבוע/הר הכרמל,רחוב:   עיר: קרית שמונה רציף:  קומה: ,"33.224463",35.569538,false,,"51312"
"40687","54798",אליעזר פרי/טרומפלדור,רחוב: אליעזר פרי 8 עיר: קרית שמונה רציף:  קומה: ,"33.201951",35.571541,false,,"54798"
"40688","54797",הרצל/ששת הימים,רחוב: הרצל 6 עיר: קרית שמונה רציף:  קומה: ,"33.211723",35.567089,false,,"54797"
"43083","56230",גן התעשיה תל חי,רחוב:   עיר: הגליל העליון רציף:  קומה: ,"33.233531",35.581526,false,,"56230"
"43084","56229",גן התעשיה תל חי,רחוב:   עיר: הגליל העליון רציף:  קומה: ,"33.233557",35.581968,false,,"56229"
"43085","56228",מכללת תל חי/קמפוס המערב,רחוב:   עיר: הגליל העליון רציף:  קומה: ,"33.232385",35.579707,false,,"56228"
"43089","56227",מכללת תל חי/כניסה,רחוב:   עיר: תל חי רציף:  קומה: ,"33.230641",35.580364,false,,"56227"
"43631","56295",ש''י עגנון/רמב''ם,רחוב: ש''י עגנון 18 עיר: קרית שמונה רציף:  קומה: ,"33.215192",35.574696,false,,"56295"
"44013","56382",מסעף איזור תעשיה,רחוב: 99 עיר: קרית שמונה רציף:  קומה: ,"33.220998",35.586367,false,,"56382"
"44167","56401",אזור תעשיה צפוני,רחוב:   עיר: קרית שמונה רציף:  קומה: ,"33.216186",35.587745,false,,"56401"
"44213","56426",האצ''ל/נוף החרמון,רחוב: האצ''ל 166 עיר: קרית שמונה רציף:  קומה: ,"33.215482",35.566929,false,,"56426"
"44214","56425",יהלום/יובל יניב,רחוב: יהלום עיר: קרית שמונה רציף:  קומה: ,"33.195138",35.575802,false,,"56425"
"44215","56424",יהלום/לשם,רחוב: יהלום עיר: קרית שמונה רציף:  קומה: ,"33.198786",35.576569,false,,"56424"
"44216","56423",האצ''ל ג,רחוב: האצ''ל 158 עיר: קרית שמונה רציף:  קומה: ,"33.218044",35.567629,false,,"56423"
"44217","56422",האצ''ל א,רחוב: האצ''ל 9 עיר: קרית שמונה רציף:  קומה: ,"33.223108",35.567706,false,,"56422"
"44218","56421",ספיר/אחלמה,רחוב: ספיר עיר: קרית שמונה רציף:  קומה: ,"33.195460",35.571564,false,,"56421"
"44219","56420",הרצל/ ברל כצנלסון,רחוב: הרצל 44 עיר: קרית שמונה רציף:  קומה: ,"33.207254",35.567037,false,,"56420"
"44220","56419",הרצל/טשרניחובסקי,רחוב: הרצל 26 עיר: קרית שמונה רציף:  קומה: ,"33.209293",35.567504,false,,"56419"
"44221","56418",הרצל/טשרניחובסקי,רחוב: הרצל 21 עיר: קרית שמונה רציף:  קומה: ,"33.210151",35.567561,false,,"56418"
"44222","56417",אזור תעשיה צפוני/אלי הורוביץ,רחוב:   עיר: קרית שמונה רציף:  קומה: ,"33.218049",35.586805,false,,"56417"
"44223","56416",אזור תעשיה צפוני/אלי הורוביץ,רחוב:   עיר: קרית שמונה רציף:  קומה: ,"33.218394",35.587018,false,,"56416"
"44224","56415",יקותיאל אדם/הר הצופים,רחוב: יקותיאל אדם 16 עיר: קרית שמונה רציף:  קומה: ,"33.220169",35.568872,false,,"56415"
"44225","56414",האצ''ל ב,רחוב: האצ''ל 11 עיר: קרית שמונה רציף:  קומה: ,"33.221843",35.567252,false,,"56414"
"44226","56413",האצ''ל/הר כרמל,רחוב: האצ''ל 3 עיר: קרית שמונה רציף:  קומה: ,"33.224138",35.569131,false,,"56413"
"44830","56498",אורן/אל על,רחוב: אורן 2 עיר: קרית שמונה רציף:  קומה: ,"33.222588",35.58686,false,,"56498"
"44831","56497",אורן/תבור,רחוב: אורן 13 עיר: קרית שמונה רציף:  קומה: ,"33.223837",35.58608,false,,"56497"
"46217","53488",ג'לבון/סער,רחוב: ג'לבון 46 עיר: קרית שמונה רציף:  קומה: ,"33.227904",35.587512,false,,"53488"
"46241","52733",אל על/אורן,רחוב: אל על 4 עיר: קרית שמונה רציף:  קומה: ,"33.222281",35.588675,false,,"52733"
"46310","53487",עיון/שני,רחוב: עיון עיר: קרית שמונה רציף:  קומה: ,"33.227257",35.588974,false,,"53487"
"46457","53556",אורן/בזלת,רחוב: אורן 28 עיר: קרית שמונה רציף:  קומה: ,"33.225731",35.585766,false,,"53556"
"46507","53554",ג'לבון/סער,רחוב: ג'לבון 77 עיר: קרית שמונה רציף:  קומה: ,"33.228006",35.586492,false,,"53554"
"46978","53409",נקרות/בזלת,רחוב: נקרות 16 עיר: קרית שמונה רציף:  קומה: ,"33.224729",35.589428,false,,"53409"
"47150","53478",עיון/שני,רחוב: עיון 25 עיר: קרית שמונה רציף:  קומה: ,"33.226055",35.589017,false,,"53478"
"47152","52891",אל על/נקרות,רחוב: אל על 8 עיר: קרית שמונה רציף:  קומה: ,"33.222402",35.590293,false,,"52891"
"47161","53578",אורן/עורבים,רחוב: אורן 47 עיר: קרית שמונה רציף:  קומה: ,"33.227443",35.58543,false,,"53578"
"47323","53066",נקרות/לוטם,רחוב: נקרות 7 עיר: קרית שמונה רציף:  קומה: ,"33.223550",35.590353,false,,"53066"
"47877","51437",ת. מרכזית ק''ש/רציפים,רחוב:   עיר: קרית שמונה רציף: 5   קומה: ,"33.209085",35.569276,false,"18709","51437"
"47911","51437",ת. מרכזית ק''ש/רציפים,רחוב:   עיר: קרית שמונה רציף: 1   קומה: ,"33.209085",35.569276,false,"18709","51437"
"47916","51437",ת. מרכזית ק''ש/רציפים,רחוב:   עיר: קרית שמונה רציף: 6   קומה: ,"33.209085",35.569276,false,"18709","51437"
"47974","51437",ת. מרכזית ק''ש/רציפים,רחוב:   עיר: קרית שמונה רציף: 4   קומה: ,"33.209085",35.569276,false,"18709","51437"
"47988","51437",ת. מרכזית ק''ש/רציפים,רחוב:   עיר: קרית שמונה רציף: 2   קומה: ,"33.209085",35.569276,false,"18709","51437"
"48182","51437",ת. מרכזית ק''ש/רציפים,רחוב:   עיר: קרית שמונה רציף: 3   קומה: ,"33.209085",35.569276,false,"18709","51437"
"48183","51437",ת. מרכזית ק''ש/רציפים,רחוב:   עיר: קרית שמונה רציף: 9   קומה: ,"33.209085",35.569276,false,"18709","51437"
"48241","51437",ת. מרכזית ק''ש/רציפים,רחוב:   עיר: קרית שמונה רציף: 7   קומה: ,"33.209085",35.569276,false,"18709","51437"
